City_ID,City,Country,Lat,Lng,Max Temp,Humidity,Cloudiness,Wind Speed,City Weather Description
0,Hami,CN,42.8,93.45,24.3,62,0,1.79,clear sky
1,Lata,PT,40.1629,-8.3327,53.82,95,54,0.36,broken clouds
2,Albany,US,42.6001,-73.9662,38.57,54,5,1.99,clear sky
3,Lompoc,US,34.6391,-120.4579,63.57,90,90,0.0,overcast clouds
4,Ilulissat,GL,69.2167,-51.1,17.62,62,20,28.77,few clouds
5,Longyearbyen,SJ,78.2186,15.6401,33.64,64,40,19.57,scattered clouds
6,Maldonado,UY,-34.6667,-54.9167,74.59,54,56,12.95,broken clouds
7,Mataura,NZ,-46.1927,168.8643,58.48,99,100,2.64,overcast clouds
8,Fortuna,US,40.5982,-124.1573,49.12,100,90,0.0,overcast clouds
9,Cidreira,BR,-30.1811,-50.2056,70.84,70,33,18.25,scattered clouds
10,Punta Arenas,CL,-53.15,-70.9167,57.31,41,75,32.21,broken clouds
11,Nouadhibou,MR,20.931,-17.0347,67.98,73,21,14.97,few clouds
12,Yellowknife,CA,62.456,-114.3525,-5.71,87,90,14.97,light snow
13,Homer,US,59.6425,-151.5483,12.07,85,1,3.44,clear sky
14,Port Alfred,ZA,-33.5906,26.891,64.35,75,100,9.93,overcast clouds
15,Touros,BR,-5.1989,-35.4608,86.9,70,100,13.6,overcast clouds
16,Hobart,AU,-42.8794,147.3294,53.46,74,75,1.01,light intensity shower rain
17,Rikitea,PF,-23.1203,-134.9692,76.23,75,3,16.82,clear sky
18,Port Blair,IN,11.6667,92.75,79.41,83,4,7.54,clear sky
19,Kodiak,US,57.79,-152.4072,6.31,85,1,4.61,clear sky
20,Avarua,CK,-21.2078,-159.775,78.85,83,100,6.91,light rain
21,Qaanaaq,GL,77.484,-69.3632,10.92,92,100,1.95,overcast clouds
22,Mahibadhoo,MV,3.7833,72.9667,82.15,76,5,5.95,clear sky
23,Ahipara,NZ,-35.1667,173.1667,64.72,89,100,8.03,light rain
24,Ambilobe,MG,-13.2,49.05,78.13,70,0,6.58,clear sky
25,Noyabrsk,RU,63.1994,75.4507,0.27,96,100,9.42,overcast clouds
26,Verkhnyaya Inta,RU,65.9811,60.3094,-2.25,98,100,9.75,light snow
27,Prince George,CA,53.9166,-122.753,29.25,66,1,1.01,clear sky
28,Kavieng,PG,-2.5744,150.7967,82.09,78,25,8.12,scattered clouds
29,Karratha,AU,-20.7377,116.8463,84.76,36,5,11.25,clear sky
30,Butaritari,KI,3.0707,172.7902,82.85,65,97,14.34,overcast clouds
31,New Norfolk,AU,-42.7826,147.0587,53.1,66,100,4.0,overcast clouds
32,Busselton,AU,-33.65,115.3333,53.04,76,0,12.37,clear sky
33,Arraial Do Cabo,BR,-22.9661,-42.0278,76.96,69,75,11.5,broken clouds
34,San Ramon,US,37.7799,-121.978,59.43,89,90,3.44,mist
35,Vaini,TO,-21.2,-175.2,78.96,89,40,8.05,light rain
36,Khani,GE,41.9563,42.9566,35.17,57,0,7.34,clear sky
37,Khatanga,RU,71.9667,102.5,-18.54,99,100,14.0,light snow
38,Shingu,JP,33.7333,135.9833,45.3,85,12,6.11,few clouds
39,Coihaique,CL,-45.5752,-72.0662,67.95,34,0,3.44,clear sky
40,Kisangani,CD,0.5167,25.2,72.3,97,100,0.92,moderate rain
41,Barrow,US,71.2906,-156.7887,-18.38,69,1,20.71,clear sky
42,Ushuaia,AR,-54.8,-68.3,60.42,36,40,17.27,scattered clouds
43,Chipping Sodbury,GB,51.5381,-2.3938,47.98,95,100,3.38,overcast clouds
44,Bluff,NZ,-46.6,168.3333,58.8,92,100,7.0,overcast clouds
45,Tromso,NO,69.6496,18.957,19.42,58,10,5.75,clear sky
46,Dogondoutchi,NE,13.6393,4.0287,83.07,13,6,8.32,clear sky
47,Tsabong,BW,-26.0217,22.401,69.89,74,97,17.38,light rain
48,Kloulklubed,PW,7.0419,134.2556,82.76,70,100,17.56,light rain
49,Eureka,US,40.8021,-124.1637,49.39,75,39,3.98,scattered clouds
50,Castelo Do Piaui,BR,-5.3222,-41.5525,93.9,33,95,4.34,overcast clouds
51,Lagoa,PT,39.05,-27.9833,63.81,81,49,11.68,scattered clouds
52,Norman Wells,CA,65.282,-126.8329,-38.16,60,20,3.44,few clouds
53,Port Lincoln,AU,-34.7333,135.8667,54.54,77,1,10.58,clear sky
54,Jalu,LY,29.0331,21.5482,64.81,29,100,12.3,overcast clouds
55,Hvolsvollur,IS,63.7533,-20.2243,29.8,93,100,4.56,overcast clouds
56,Half Moon Bay,US,37.4636,-122.4286,59.54,87,90,1.01,haze
57,Griffith,US,41.5284,-87.4237,55.35,53,1,1.01,clear sky
58,Port Elizabeth,ZA,-33.918,25.5701,62.89,77,0,3.44,clear sky
59,Pisco,PE,-13.7,-76.2167,73.45,64,0,18.41,clear sky
60,Nantucket,US,41.2835,-70.0995,44.74,56,88,25.7,overcast clouds
61,Codrington,AU,-38.2667,141.9667,53.47,81,100,9.28,overcast clouds
62,Hilo,US,19.7297,-155.09,78.53,72,20,4.61,few clouds
63,Talnakh,RU,69.4865,88.3972,-23.8,99,100,11.86,overcast clouds
64,Dalvik,IS,65.9702,-18.5286,19.33,71,100,6.55,overcast clouds
65,Sao Filipe,CV,14.8961,-24.4956,75.61,71,99,11.65,overcast clouds
66,Mount Isa,AU,-20.7333,139.5,80.37,34,100,5.75,overcast clouds
67,Kautokeino,NO,69.0125,23.0412,-4.07,100,100,2.06,overcast clouds
68,Anchorage,US,61.2181,-149.9003,5.04,86,90,3.44,light snow
69,Westport,US,41.1415,-73.3579,48.18,47,1,1.01,clear sky
70,Andra,RU,62.5147,65.8878,14.99,95,100,8.7,light snow
71,Olinda,BR,-8.0089,-34.8553,83.93,74,40,10.36,scattered clouds
72,Kamenka,RU,51.3223,42.7678,43.75,80,100,19.51,overcast clouds
73,Novoye Leushino,RU,56.8073,40.5144,31.87,99,100,5.75,light snow
74,Nikolskoye,RU,59.7035,30.7861,22.01,95,100,7.09,light snow
75,Gwadar,PK,25.1216,62.3254,74.75,61,0,6.06,clear sky
76,Tiksi,RU,71.6872,128.8694,-32.67,99,57,5.57,broken clouds
77,Sola,VU,-13.8833,167.55,81.3,75,100,15.99,overcast clouds
78,Conceicao Da Barra,BR,-18.5933,-39.7322,78.87,69,31,9.48,scattered clouds
79,Amapa,BR,1.0,-52.0,81.39,77,100,2.48,light rain
80,Hermanus,ZA,-34.4187,19.2345,64.9,71,8,14.16,clear sky
81,Alice Springs,AU,-23.7,133.8833,69.35,52,6,4.61,clear sky
82,Mar Del Plata,AR,-38.0023,-57.5575,63.09,94,90,5.01,light rain
83,Carutapera,BR,-1.195,-46.02,82.08,75,100,6.96,light rain
84,Talaya,RU,61.3833,152.75,-28.14,100,100,1.19,overcast clouds
85,Havoysund,NO,70.9963,24.6622,23.23,81,46,12.46,scattered clouds
86,Mayor Pablo Lagerenza,PY,-19.9309,-60.7718,95.58,41,98,10.38,overcast clouds
87,Puerto Ayora,EC,-0.7393,-90.3518,78.76,80,77,9.73,broken clouds
88,Vrangel,RU,42.7297,133.0839,22.28,57,34,8.01,scattered clouds
89,Ginir,ET,7.1333,40.7,56.66,59,4,4.18,clear sky
90,Ust-Ilimsk,RU,58.0006,102.6619,32.25,61,100,13.78,overcast clouds
91,Porto Walter,BR,-8.2686,-72.7439,85.17,65,98,2.86,overcast clouds
92,Manokwari,ID,-0.8667,134.0833,78.01,84,100,6.71,overcast clouds
93,Kruisfontein,ZA,-34.0033,24.7314,59.88,80,100,4.25,overcast clouds
94,Axim,GH,4.8699,-2.2405,80.35,82,49,7.81,scattered clouds
95,Veselynove,UA,47.3567,31.2349,38.95,90,100,16.22,overcast clouds
96,Namatanai,PG,-3.6667,152.4333,80.4,84,100,6.58,light rain
97,Kumertau,RU,52.7667,55.7833,32.77,99,100,13.87,overcast clouds
98,Severo-Kurilsk,RU,50.6789,156.125,38.8,84,100,17.72,overcast clouds
99,Georgetown,MY,5.4112,100.3354,79.9,82,20,5.75,few clouds
100,Jamestown,US,42.097,-79.2353,36.99,78,90,1.01,overcast clouds
101,Guarapari,BR,-20.6667,-40.4975,75.09,86,80,6.73,moderate rain
102,Mitsamiouli,KM,-11.3847,43.2844,81.03,76,11,10.4,few clouds
103,Pevek,RU,69.7008,170.3133,1.22,90,100,20.33,light snow
104,Nanortalik,GL,60.1432,-45.2371,25.9,50,100,5.01,overcast clouds
105,Upernavik,GL,72.7868,-56.1549,14.02,82,41,7.4,scattered clouds
106,Sao Joao Da Barra,BR,-21.6403,-41.0511,75.29,78,99,9.78,overcast clouds
107,Limbang,MY,4.75,115.0,77.05,97,100,1.59,overcast clouds
108,Kastamonu,TR,41.5,33.6667,37.54,77,6,1.48,clear sky
109,Rypin,PL,53.066,19.4094,32.25,75,83,15.01,broken clouds
110,Bambous Virieux,MU,-20.3428,57.7575,78.22,88,20,6.91,few clouds
111,Sistranda,NO,63.7256,8.834,22.89,68,9,20.31,clear sky
112,Souillac,MU,-20.5167,57.5167,78.37,88,20,6.91,few clouds
113,Nha Trang,VN,12.25,109.1833,69.8,83,95,9.4,overcast clouds
114,Clyde River,CA,70.4692,-68.5914,8.83,92,88,10.36,light snow
115,Dunedin,NZ,-45.8742,170.5036,57.78,97,100,1.54,overcast clouds
116,Saskylakh,RU,71.9167,114.0833,-27.53,96,100,8.39,overcast clouds
117,Skegness,GB,53.1436,0.3363,43.57,88,100,5.82,overcast clouds
118,Bac Lieu,VN,9.285,105.7244,73.92,83,100,5.44,overcast clouds
119,Cabo San Lucas,MX,22.8909,-109.9124,88.9,57,1,1.01,clear sky
120,Laguna,US,38.421,-121.4238,74.64,100,90,6.91,fog
121,Makakilo City,US,21.3469,-158.0858,76.28,88,90,4.61,light rain
122,Airai,TL,-8.9266,125.4092,61.59,87,67,1.77,broken clouds
123,Bredasdorp,ZA,-34.5322,20.0403,61.29,67,89,8.79,overcast clouds
124,Husavik,IS,66.0449,-17.3389,19.31,82,97,12.71,overcast clouds
125,Sakakah,SA,29.9697,40.2064,56.77,40,100,10.31,overcast clouds
126,Tasiilaq,GL,65.6145,-37.6368,24.96,59,86,7.4,overcast clouds
127,Nauchnyy Gorodok,RU,53.4203,83.521,31.06,80,40,20.0,scattered clouds
128,Srednekolymsk,RU,67.45,153.6833,-14.78,98,100,15.79,light snow
129,Sinnamary,GF,5.3833,-52.95,81.45,73,56,7.74,broken clouds
130,Atambua,ID,-9.1061,124.8925,75.99,84,99,1.25,heavy intensity rain
131,Hithadhoo,MV,-0.6,73.0833,81.43,78,16,9.51,few clouds
132,Saint-Pierre,RE,-21.3393,55.4781,78.44,78,0,3.44,clear sky
133,Haines Junction,CA,60.7522,-137.5108,-4.05,59,100,6.91,overcast clouds
134,Tuktoyaktuk,CA,69.4541,-133.0374,-20.2,76,75,14.97,broken clouds
135,Quelimane,MZ,-17.8786,36.8883,82.35,78,0,17.27,clear sky
136,Haukipudas,FI,65.1765,25.3523,15.85,92,91,10.51,overcast clouds
137,Yermolayevo,RU,52.7167,55.8,33.04,99,100,13.6,overcast clouds
138,General Pico,AR,-35.6566,-63.7568,60.42,94,100,10.47,overcast clouds
139,Vardo,NO,70.3705,31.1107,30.18,55,75,11.5,light shower snow
140,Troitskoye,RU,52.9821,84.6757,32.29,98,100,13.96,light snow
141,Gurupa,BR,-1.405,-51.64,88.72,53,92,2.1,overcast clouds
142,Kaoma,ZM,-14.7833,24.8,78.22,41,89,5.84,overcast clouds
143,Itaquyry,PY,-24.9333,-55.2167,95.22,19,0,3.13,clear sky
144,Tuatapere,NZ,-46.1333,167.6833,58.82,93,100,3.22,moderate rain
145,Klaksvik,FO,62.2266,-6.589,32.92,69,17,5.61,few clouds
146,Saint-Philippe,RE,-21.3585,55.7679,78.35,86,21,10.74,few clouds
147,Kapaa,US,22.0752,-159.319,75.18,82,75,5.01,moderate rain
148,Grindavik,IS,63.8424,-22.4338,28.87,93,40,10.36,heavy snow
149,Rudbar,AF,30.15,62.6,64.04,29,0,5.84,clear sky
150,Nome,US,64.5011,-165.4064,5.07,85,90,29.93,snow
151,Cape Town,ZA,-33.9258,18.4232,63.09,62,20,5.01,few clouds
152,Loubomo,CG,-4.1997,12.6739,73.74,95,100,4.59,light rain
153,Dikson,RU,73.5069,80.5464,-22.67,94,96,14.63,overcast clouds
154,Wanning,CN,18.8003,110.3967,61.45,60,86,8.19,overcast clouds
155,Chokurdakh,RU,70.6333,147.9167,-19.55,93,100,14.52,overcast clouds
156,Te Anau,NZ,-45.4167,167.7167,56.41,98,100,0.27,moderate rain
157,Aklavik,CA,68.2191,-135.0107,-24.77,75,20,3.44,few clouds
158,Saint-Joseph,RE,-21.3667,55.6167,77.36,84,10,9.28,clear sky
159,Isangel,VU,-19.55,169.2667,71.71,94,20,0.0,few clouds
160,San Patricio,US,28.017,-97.5169,83.01,57,1,11.23,clear sky
161,Saldanha,ZA,-33.0117,17.9442,62.65,77,27,22.28,scattered clouds
162,East London,ZA,-33.0153,27.9116,64.96,71,96,7.63,overcast clouds
163,Constitucion,CL,-35.3333,-72.4167,63.36,55,3,14.79,clear sky
164,Camacha,PT,33.0833,-16.3333,61.56,59,75,12.66,broken clouds
165,Tyrma,RU,50.0833,132.1667,-22.94,100,70,1.77,broken clouds
166,Hibbing,US,47.4272,-92.9377,33.31,75,90,12.66,overcast clouds
167,Edendale,ZA,-29.6528,30.3147,62.62,94,100,1.95,overcast clouds
168,Sant Feliu De Guixols,ES,41.7833,3.0333,51.91,83,24,3.49,few clouds
169,Evensk,RU,61.95,159.2333,-17.45,74,7,9.33,clear sky
170,Risor,NO,58.7206,9.2342,22.28,97,100,21.81,snow
171,Saint George,US,37.1041,-113.5841,71.35,30,1,0.0,clear sky
172,Nichinan,JP,31.6,131.3667,46.76,76,4,10.11,clear sky
173,Mezinovskiy,RU,55.5042,40.3593,34.79,98,100,9.4,light snow
174,Merrill,US,45.1805,-89.6835,35.37,97,90,3.44,light intensity drizzle
175,Grand Gaube,MU,-20.0064,57.6608,78.39,75,1,5.99,clear sky
176,Sioux Lookout,CA,50.1001,-91.917,26.98,93,90,5.75,light snow
177,Ribeira Grande,PT,38.5167,-28.7,63.0,94,75,8.05,broken clouds
178,Biysk,RU,52.5364,85.2072,33.06,97,100,17.72,light snow
179,Sinjar,IQ,36.3209,41.8754,49.26,35,98,1.74,overcast clouds
180,Belmopan,BZ,17.25,-88.7667,84.29,47,69,5.86,broken clouds
181,Mogadouro,PT,41.3403,-6.7119,42.4,88,15,3.91,few clouds
182,Provideniya,RU,64.3833,-173.3,28.44,98,100,5.19,light snow
183,Richards Bay,ZA,-28.783,32.0377,70.27,81,100,2.86,overcast clouds
184,Buala,SB,-8.145,159.5921,79.2,82,100,3.44,light rain
185,Fairbanks,US,64.8378,-147.7164,-20.4,76,1,0.0,clear sky
186,Kushima,JP,31.4583,131.2333,47.12,72,4,11.43,clear sky
187,High Level,CA,58.5169,-117.136,-3.89,77,90,6.91,light snow
188,Junction City,US,39.0286,-96.8314,64.71,44,1,4.0,clear sky
189,Urengoy,RU,65.9667,78.3667,-16.02,92,24,11.74,few clouds
190,Maniitsoq,GL,65.4167,-52.9,23.25,65,100,23.53,overcast clouds
191,Panzhihua,CN,26.5851,101.7128,56.19,82,100,0.58,overcast clouds
192,Hasaki,JP,35.7333,140.8333,37.8,56,0,6.24,clear sky
193,Vastseliina,EE,57.7303,27.2932,20.05,93,100,9.71,overcast clouds
194,Katsuura,JP,35.1333,140.3,46.51,61,0,9.84,clear sky
195,Victoria,HK,22.2855,114.1577,64.38,35,72,5.99,broken clouds
196,Atuona,PF,-9.8,-139.0333,78.39,73,11,18.61,few clouds
197,Summerland,CA,49.5998,-119.6691,39.09,69,90,2.3,overcast clouds
198,Esperance,AU,-33.8667,121.9,55.24,81,0,12.06,clear sky
199,Atasu,KZ,48.6814,71.6433,16.9,97,34,3.4,scattered clouds
200,Umm Lajj,SA,25.0213,37.2685,76.5,60,8,7.65,clear sky
201,Qeshm,IR,26.9581,56.2719,75.09,68,0,21.99,clear sky
202,Alyangula,AU,-13.8483,136.4192,76.87,100,100,4.61,overcast clouds
203,Lebu,CL,-37.6167,-73.65,57.34,67,0,18.25,clear sky
204,Midland,US,31.9974,-102.0779,83.05,21,1,11.5,clear sky
205,Friesach,AT,46.9553,14.4058,27.9,91,11,3.04,few clouds
206,Guerrero Negro,MX,27.9769,-114.0611,69.96,57,0,12.71,clear sky
207,Thompson,CA,55.7435,-97.8558,-2.04,78,75,10.36,broken clouds
208,Adeje,ES,28.1227,-16.726,66.56,60,75,3.0,broken clouds
209,Varena,LT,54.2167,24.5667,30.85,91,33,7.78,scattered clouds
210,Labis,MY,2.385,103.021,74.01,86,100,5.84,overcast clouds
211,Alpena,US,45.0617,-83.4327,34.18,69,90,1.99,overcast clouds
212,Novopavlovka,RU,51.2172,109.2091,6.12,97,64,1.07,broken clouds
213,Kupang,ID,-10.1667,123.5833,80.56,83,100,1.77,moderate rain
214,Kijang,KR,35.2442,129.2139,33.53,45,0,17.52,clear sky
215,Ken Caryl,US,39.5773,-105.1169,67.57,34,43,1.99,scattered clouds
216,Anjozorobe,MG,-18.4,47.8667,64.72,94,11,5.5,few clouds
217,Faanui,PF,-16.4833,-151.75,81.32,68,72,19.55,broken clouds
218,Salinas,US,36.6777,-121.6555,56.84,79,90,0.0,overcast clouds
219,Vredendal,ZA,-31.6683,18.5012,78.66,29,98,2.24,overcast clouds
220,Lyskovo,RU,56.0328,45.0422,34.81,95,100,12.46,overcast clouds
221,Chuy,UY,-33.6971,-53.4616,69.19,67,78,12.1,broken clouds
222,Shimoda,JP,34.6667,138.95,45.1,62,0,24.9,clear sky
223,Carnarvon,AU,-24.8667,113.6333,71.67,83,75,14.97,broken clouds
224,Hamilton,US,39.1834,-84.5333,61.23,49,1,4.0,clear sky
225,Sitka,US,57.0531,-135.33,30.09,69,40,9.22,light snow
226,Obigarm,TJ,38.7173,69.7088,46.72,35,100,5.44,overcast clouds
227,Garissa,KE,-0.4536,39.6401,80.89,70,98,12.88,overcast clouds
228,Leningradskiy,RU,69.3833,178.4167,13.5,81,5,9.86,clear sky
229,Penzance,GB,50.1186,-5.5371,52.77,95,100,22.5,overcast clouds
230,Gejiu,CN,23.306,103.1635,37.36,84,18,2.82,few clouds
231,Qui Nhon,VN,13.7667,109.2333,67.14,76,98,13.09,overcast clouds
232,Bonnyville,CA,54.2668,-110.735,20.52,84,11,9.55,few clouds
233,Tinos,GR,37.5375,25.1634,66.34,75,98,17.69,overcast clouds
234,Urucara,BR,-2.5364,-57.76,77.7,92,100,1.14,overcast clouds
235,Tevriz,RU,57.509,72.4042,25.92,87,100,11.1,overcast clouds
236,Vinh,VN,18.6667,105.6667,57.83,74,6,5.7,clear sky
237,Santa Cruz De La Palma,ES,28.6835,-17.7642,66.34,68,75,16.11,broken clouds
238,Castro,BR,-24.7911,-50.0119,75.83,55,30,9.24,scattered clouds
239,Barcs,HU,45.96,17.4586,33.03,79,6,2.39,clear sky
240,Juneau,US,58.3019,-134.4197,30.85,94,90,6.91,snow
241,Lensk,RU,60.7253,114.9278,29.19,95,100,13.49,snow
242,Takoradi,GH,4.8845,-1.7554,81.0,82,96,8.55,overcast clouds
243,Coahuayana,MX,18.7333,-103.6833,87.28,57,55,5.44,broken clouds
244,Bani,DO,18.2833,-70.3333,86.76,56,32,11.18,scattered clouds
245,Kahului,US,20.8947,-156.47,73.42,94,90,4.61,moderate rain
246,Kidal,ML,18.4411,1.4078,78.48,12,87,3.2,overcast clouds
247,General Roca,AR,-39.0333,-67.5833,69.62,23,90,18.16,light rain
248,Marquette,US,46.5333,-87.6335,32.83,82,100,5.84,light snow
249,Lam Luk Ka,TH,13.9323,100.7494,73.92,67,20,2.3,few clouds
250,Beisfjord,NO,68.3751,17.5988,24.85,85,17,9.84,few clouds
251,Vanavara,RU,60.34,102.2797,28.54,96,100,12.1,snow
252,Zhezkazgan,KZ,47.8043,67.7144,24.26,88,5,2.21,clear sky
253,Dingle,PH,10.9995,122.6711,73.04,90,100,8.39,overcast clouds
254,Rawson,AR,-43.3002,-65.1023,69.35,34,4,21.07,clear sky
255,Girona,ES,41.9831,2.8249,51.12,82,75,1.01,broken clouds
256,Aanekoski,FI,62.6946,25.818,21.27,100,100,9.35,overcast clouds
257,San Quintin,MX,30.4833,-115.95,65.95,67,0,11.7,clear sky
258,Santa Maria,BR,-29.6842,-53.8069,85.3,39,20,11.5,few clouds
259,Bacong,PH,9.2464,123.2956,76.42,88,100,13.4,overcast clouds
260,Beringovskiy,RU,63.05,179.3167,21.07,89,24,8.1,few clouds
261,Panaba,MX,21.2833,-88.2667,80.33,60,98,10.49,overcast clouds
262,Havelock,US,34.8791,-76.9013,76.05,51,1,3.0,clear sky
263,Necochea,AR,-38.5473,-58.7368,58.03,81,100,18.45,overcast clouds
264,Karabulak,RU,43.3036,44.8964,27.59,57,0,3.24,clear sky
265,Cherskiy,RU,68.75,161.3,-8.9,97,100,15.61,overcast clouds
266,Batagay,RU,67.6333,134.6333,-41.22,97,79,4.38,broken clouds
267,Kaitangata,NZ,-46.2817,169.8464,57.65,98,100,2.06,overcast clouds
268,Ha Giang,VN,22.8333,104.9833,57.42,88,33,0.63,scattered clouds
269,Vila Velha,BR,-20.3297,-40.2925,75.15,93,90,11.99,mist
270,Nago,JP,26.5881,127.9761,64.56,59,37,14.09,scattered clouds
271,Naze,JP,28.3667,129.4833,59.47,53,100,13.4,overcast clouds
272,Sabinopolis,BR,-18.6661,-43.0839,75.36,75,59,5.86,broken clouds
273,Rio Grande,BR,-32.035,-52.0986,77.11,61,27,15.77,scattered clouds
274,Portland,US,45.5234,-122.6762,47.1,85,75,1.01,broken clouds
275,Palakkodu,IN,12.3,78.0833,70.02,94,95,3.06,overcast clouds
276,Bengkulu,ID,-3.8004,102.2655,77.04,89,100,4.79,heavy intensity rain
277,Kulhudhuffushi,MV,6.6221,73.07,82.13,74,11,3.33,few clouds
278,Turinsk,RU,58.0458,63.696,24.91,81,98,11.41,overcast clouds
279,Severo-Yeniseyskiy,RU,60.3725,93.0408,26.51,91,100,11.07,overcast clouds
280,Dolzhanskaya,RU,46.6311,37.8039,46.9,82,100,23.73,overcast clouds
281,Koshurnikovo,RU,54.1667,93.3,14.58,95,100,4.99,snow
282,Mayumba,GA,-3.432,10.6554,78.6,86,100,3.53,light rain
283,Itoman,JP,26.1247,127.6694,64.42,52,40,16.11,scattered clouds
284,Sur,OM,22.5667,59.5289,73.67,58,0,6.24,clear sky
285,Linjiang,CN,41.8069,126.9078,14.68,95,100,1.48,light snow
286,Solnechnyy,RU,50.7214,136.6319,-6.05,99,52,1.66,broken clouds
287,Ronne,DK,55.1009,14.7066,37.31,87,75,20.71,broken clouds
288,Iquitos,PE,-3.7481,-73.2472,87.84,66,75,9.22,broken clouds
289,Narsaq,GL,60.9167,-46.05,17.82,63,80,10.54,broken clouds
290,Ngama,TD,11.7833,17.1667,82.76,22,10,7.31,clear sky
291,Ostrovnoy,RU,68.0531,39.5131,22.86,68,100,11.95,light snow
292,Mahebourg,MU,-20.4081,57.7,78.26,88,20,6.91,few clouds
293,Beniganj,IN,27.2833,80.45,64.56,56,8,1.83,clear sky
294,Marsabit,KE,2.3284,37.9899,68.72,70,6,13.24,clear sky
295,Port Hardy,CA,50.6996,-127.4199,39.76,93,75,3.44,broken clouds
296,Kununurra,AU,-15.7667,128.7333,82.38,89,100,6.91,overcast clouds
297,Puerto Del Rosario,ES,28.5004,-13.8627,64.15,68,40,21.85,scattered clouds
298,Bethel,US,41.3712,-73.414,46.0,49,1,3.0,clear sky
299,Kvarkeno,RU,52.0833,59.725,32.61,92,100,18.12,overcast clouds
300,Northam,GB,51.0333,-4.2167,49.01,96,100,7.4,overcast clouds
301,Gilbues,BR,-9.8317,-45.3439,84.74,59,90,3.31,moderate rain
302,Jacareacanga,BR,-6.2222,-57.7528,84.51,74,75,5.75,broken clouds
303,High Rock,BS,26.6208,-78.2833,77.02,59,53,8.97,broken clouds
304,Saint-Augustin,CA,51.226,-58.6502,37.76,100,100,4.29,overcast clouds
305,Turkistan,KZ,43.0,68.0,48.63,58,100,5.82,overcast clouds
306,Mayo,US,38.8876,-76.5119,53.67,48,90,5.99,overcast clouds
307,Paamiut,GL,61.994,-49.6678,18.81,64,100,15.3,overcast clouds
308,Aitape,PG,-3.1374,142.3475,77.99,88,60,3.76,broken clouds
309,Tingi,TZ,-11.3,35.0333,71.76,51,72,6.42,broken clouds
310,Aviles,ES,43.5547,-5.9248,60.76,65,75,11.01,broken clouds
311,Yumen,CN,40.2833,97.2,26.74,37,0,15.61,clear sky
312,Puerto Escondido,MX,15.85,-97.0667,86.83,62,1,6.91,clear sky
313,Sai Buri,TH,6.7013,101.6168,77.97,84,99,5.3,overcast clouds
314,Erzin,TR,36.9559,36.2,47.12,45,100,5.59,overcast clouds
315,Pierre,US,44.3683,-100.351,44.85,61,90,1.01,overcast clouds
316,Sabha,LY,27.0377,14.4283,64.98,17,60,12.37,broken clouds
317,Mareeba,AU,-17.0,145.4333,73.44,90,100,1.88,overcast clouds
318,Pankrushikha,RU,53.8319,80.3406,22.41,88,97,13.96,overcast clouds
319,Mogadishu,SO,2.0371,45.3438,80.28,73,6,15.5,clear sky
320,Fort Nelson,CA,58.8053,-122.7002,-13.41,77,75,0.0,broken clouds
321,Izumo,JP,35.3667,132.7667,42.75,66,83,12.71,broken clouds
322,Hualmay,PE,-11.0964,-77.6139,71.74,73,52,11.77,broken clouds
323,Tabuk,PH,17.4189,121.4443,66.51,93,100,5.28,overcast clouds
324,Zhuhai,CN,22.2769,113.5678,64.11,42,0,17.27,clear sky
325,Rabo De Peixe,PT,37.8,-25.5833,62.28,98,75,6.91,broken clouds
326,Nchelenge,ZM,-9.3451,28.734,76.21,62,12,3.36,few clouds
327,Dakar,SN,14.6937,-17.4441,76.08,83,82,9.22,broken clouds
328,Butembo,CD,0.15,29.2833,57.94,95,100,3.47,overcast clouds
329,Nyurba,RU,63.2842,118.3319,-1.03,96,100,8.5,light snow
330,Deputatskiy,RU,69.3,139.9,-30.35,91,100,5.95,overcast clouds
331,Banda Aceh,ID,5.5577,95.3222,76.59,86,100,12.68,overcast clouds
332,Satipo,PE,-11.2522,-74.6386,84.63,61,91,2.89,overcast clouds
333,Rocha,UY,-34.4833,-54.3333,70.7,62,93,10.49,overcast clouds
334,Harnosand,SE,62.6323,17.9379,21.99,91,100,13.82,light snow
335,Xinzhi,CN,36.4989,111.7047,38.39,30,6,2.8,clear sky
336,Tiarei,PF,-17.5333,-149.3333,84.22,74,7,17.29,clear sky
337,Henties Bay,NA,-22.116,14.2845,62.85,87,0,5.97,clear sky
338,College,US,64.8569,-147.8028,-20.42,76,20,0.0,few clouds
339,Smidovich,RU,48.6,133.8167,-19.1,99,62,3.27,broken clouds
340,Itarema,BR,-2.9248,-39.9167,83.07,71,44,15.77,scattered clouds
341,Vao,NC,-22.6667,167.4833,76.39,77,98,14.18,overcast clouds
342,Russell,US,32.3502,-85.1999,74.91,55,100,5.06,overcast clouds
343,Mount Gambier,AU,-37.8333,140.7667,51.71,82,90,4.61,overcast clouds
344,Bretzfeld,DE,49.1794,9.4383,37.54,86,100,7.92,overcast clouds
345,Esmeraldas,BR,-19.7625,-44.3139,70.84,75,29,3.8,scattered clouds
346,Dubrovnik,HR,42.6481,18.0922,47.84,71,75,25.32,broken clouds
347,Ancud,CL,-41.8697,-73.8203,63.93,63,1,6.67,clear sky
348,Kieta,PG,-6.2167,155.6333,79.12,81,6,3.44,clear sky
349,Pahrump,US,36.2083,-115.9839,70.32,20,1,1.01,clear sky
350,Dourbali,TD,11.8091,15.8632,81.25,23,6,6.58,clear sky
351,College Place,US,46.0493,-118.3883,50.41,76,1,3.0,clear sky
352,Rio Gallegos,AR,-51.6226,-69.2181,68.05,30,0,23.02,clear sky
353,Wageningen,NL,51.9667,5.6667,41.11,94,90,13.8,mist
354,Luderitz,NA,-26.6481,15.1594,61.11,85,29,10.27,scattered clouds
355,Petropavlovsk-Kamchatskiy,RU,53.0452,158.6483,32.59,80,40,4.47,scattered clouds
356,Road Town,VG,18.4167,-64.6167,84.29,70,20,10.78,few clouds
357,Baykit,RU,61.67,96.37,29.34,90,100,10.07,overcast clouds
358,Ambulu,ID,-8.345,113.6058,76.46,91,43,2.46,scattered clouds
359,Quatre Cocos,MU,-20.2078,57.7625,78.1,76,9,12.86,clear sky
360,Lorengau,PG,-2.0226,147.2712,82.38,79,56,10.38,broken clouds
361,Aksarka,RU,66.5606,67.7975,-9.63,91,100,10.92,overcast clouds
362,Cap Malheureux,MU,-19.9842,57.6142,78.48,75,5,5.01,clear sky
363,Ponta Do Sol,PT,32.6667,-17.1,65.03,67,70,9.91,broken clouds
364,Geraldton,AU,-28.7667,114.6,63.01,77,0,10.36,clear sky
365,Cristalina,BR,-16.7686,-47.6136,71.92,76,100,3.58,overcast clouds
366,Bairiki,KI,1.3292,172.9752,80.6,74,20,4.61,few clouds
367,Adrar,MR,20.5022,-10.0711,68.11,22,100,10.42,overcast clouds
368,El Alto,PE,-4.2714,-81.2147,74.86,70,46,17.11,scattered clouds
369,Ust-Kan,RU,50.9276,84.761,27.18,94,100,5.19,light snow
370,Moussoro,TD,13.6408,16.4901,81.73,18,0,10.38,clear sky
371,Wembley,AU,-31.9333,115.8,64.09,65,0,13.8,clear sky
372,Morgantown,US,39.6295,-79.9559,49.05,61,90,3.44,overcast clouds
373,Belle Fourche,US,44.6714,-103.8522,52.45,57,100,3.87,overcast clouds
374,Kavaratti,IN,10.5669,72.642,81.27,74,1,1.39,clear sky
375,Waipawa,NZ,-41.4122,175.5153,61.45,74,100,5.44,light rain
376,Kumphawapi,TH,17.1087,103.0149,55.0,64,12,4.72,few clouds
377,Hobyo,SO,5.3505,48.5268,78.85,70,7,14.61,clear sky
378,Padang,ID,-0.9492,100.3543,78.3,79,100,4.27,light rain
379,Nabire,ID,-3.3667,135.4833,76.46,91,100,2.37,overcast clouds
380,Acapulco,MX,16.8634,-99.8901,85.82,62,40,5.75,scattered clouds
381,Mildura,AU,-34.2,142.15,55.36,58,5,10.36,clear sky
382,Itajuba,BR,-22.4256,-45.4528,76.95,83,13,4.14,few clouds
383,Acari,PE,-15.4311,-74.6158,78.33,58,83,10.54,broken clouds
384,Wakkanai,JP,45.4094,141.6739,34.18,71,98,12.66,light rain
385,Gisborne,NZ,-38.6533,178.0042,65.95,71,100,5.32,overcast clouds
386,Kalmunai,LK,7.4167,81.8167,77.5,85,92,2.26,overcast clouds
387,San Policarpo,PH,12.1791,125.5072,78.82,73,100,16.4,overcast clouds
388,Svetlogorsk,BY,52.6333,29.7333,28.81,87,43,13.31,scattered clouds
389,Mercedes,AR,-34.6515,-59.4307,77.04,38,70,9.8,light rain
390,Nemuro,JP,43.3236,145.575,41.59,81,19,18.75,few clouds
391,Golfito,CR,8.639,-83.166,81.12,82,73,4.74,broken clouds
392,Am Timan,TD,11.0297,20.2827,81.66,25,38,4.76,scattered clouds
393,Mayya,RU,61.7333,130.2811,-40.68,100,56,3.58,broken clouds
394,Bandarbeyla,SO,9.4942,50.8122,77.68,65,3,19.53,clear sky
395,Waitara,NZ,-38.925,174.25,64.72,86,100,9.13,moderate rain
396,Barsovo,RU,61.1667,73.1667,23.13,90,100,14.9,overcast clouds
397,Biak,ID,-0.9131,122.8766,76.91,83,100,2.46,moderate rain
398,Metlaltoyuca,MX,20.7333,-97.85,76.73,65,41,4.54,scattered clouds
399,Puerto Colombia,CO,10.9878,-74.9547,89.69,75,39,17.78,scattered clouds
400,The Valley,AI,18.217,-63.0578,85.1,74,31,11.18,scattered clouds
401,Yarim,YE,14.298,44.3779,46.65,28,0,4.9,clear sky
402,Egvekinot,RU,66.3167,-179.1667,21.42,99,100,7.34,light snow
403,Ixtapa,MX,20.7,-105.2,81.63,65,20,6.91,few clouds
404,Namibe,AO,-15.1961,12.1522,73.9,60,5,6.44,clear sky
405,Jardim,BR,-21.4803,-56.1381,98.22,23,81,3.49,broken clouds
406,Hornepayne,CA,49.2138,-84.7705,13.6,54,100,5.77,overcast clouds
407,Moron,AR,-34.6534,-58.6198,77.02,46,19,5.01,light rain
408,Epernay,FR,49.05,3.95,40.15,94,100,15.3,light rain
409,Nelson Bay,AU,-32.7167,152.15,69.12,97,63,3.49,broken clouds
410,Nicoya,CR,10.1483,-85.452,83.75,82,96,6.49,overcast clouds
411,Verkhoyansk,RU,67.5447,133.385,-47.54,100,68,1.03,broken clouds
412,Sharjah,AE,25.3573,55.4033,78.26,64,20,5.75,few clouds
413,Otradnoye,RU,59.7775,30.8181,22.17,95,100,7.25,overcast clouds
414,Siddapur,IN,14.3333,74.8833,67.75,97,95,0.78,overcast clouds
415,Tommot,RU,58.9564,126.2925,-10.34,85,100,3.53,overcast clouds
416,Karaman,TR,37.0833,33.25,40.96,90,100,13.2,overcast clouds
417,Saint-Francois,FR,46.4154,3.9054,38.68,83,90,10.36,light rain
418,Cabedelo,BR,-6.9811,-34.8339,84.87,76,68,11.32,broken clouds
419,Saint-Louis,SN,16.3333,-15.0,87.44,12,84,10.65,broken clouds
420,Iqaluit,CA,63.7506,-68.5145,8.33,71,20,8.01,few clouds
421,Payakumbuh,ID,-0.2202,100.6308,70.81,96,100,1.77,overcast clouds
422,Tigil,RU,57.8,158.6667,22.03,89,100,10.69,overcast clouds
423,Kiunga,PG,-6.1219,141.2906,73.09,100,100,1.41,overcast clouds
424,Puyang,CN,29.4603,119.8861,42.62,67,62,1.3,broken clouds
425,Buncrana,IE,55.1333,-7.45,48.02,89,100,14.92,overcast clouds
426,Charters Towers,AU,-20.1,146.2667,75.25,80,98,4.72,overcast clouds
427,Zhigansk,RU,66.7697,123.3711,-39.71,99,83,9.93,broken clouds
428,Kathmandu,NP,27.7167,85.3167,53.82,100,20,2.3,few clouds
429,Pine Bluff,US,34.2284,-92.0032,75.09,71,40,8.01,scattered clouds
430,Sibu,MY,2.3,111.8167,77.31,100,40,3.0,scattered clouds
431,Anadyr,RU,64.75,177.4833,21.7,79,75,31.0,light snow
432,Hofn,IS,64.2539,-15.2082,30.97,57,6,10.11,clear sky
433,Nuuk,GL,64.1835,-51.7216,27.21,50,20,16.11,few clouds
434,Shache,CN,38.4167,77.2406,28.08,34,5,1.5,clear sky
435,Marshalltown,US,42.0494,-92.908,57.43,40,1,5.75,clear sky
436,Santa Marta,CO,11.2408,-74.199,84.49,71,100,12.91,overcast clouds
437,Bathsheba,BB,13.2167,-59.5167,84.81,65,20,17.27,few clouds
438,Klyuchi,RU,52.2667,79.1667,25.84,89,19,13.0,few clouds
439,Kaka,TM,37.3482,59.6143,41.09,90,100,7.34,overcast clouds
440,Torbay,CA,47.6666,-52.7314,54.28,96,90,26.46,moderate rain
441,Diego De Almagro,CL,-26.3667,-70.05,81.3,14,16,13.4,few clouds
442,Pionerskiy,RU,54.9508,20.2275,31.84,82,100,13.35,light snow
443,Williston,US,48.147,-103.618,37.58,37,25,7.0,scattered clouds
444,Hambantota,LK,6.1241,81.1185,78.04,83,58,3.31,light rain
445,Zarautz,ES,43.2844,-2.1699,56.61,88,99,8.46,overcast clouds
446,Tabou,CI,4.423,-7.3528,80.13,82,40,8.61,scattered clouds
447,Chapais,CA,49.7834,-74.8492,6.58,90,100,9.93,overcast clouds
448,Punta Gorda,US,26.9298,-82.0454,79.0,42,1,3.0,clear sky
449,Sangar,RU,63.9242,127.4739,-35.7,89,31,10.13,scattered clouds
450,Gamba,GA,-2.65,10.0,77.65,88,100,4.47,light rain
451,Hokitika,NZ,-42.7167,170.9667,58.19,93,100,6.82,light rain
452,Flinders,AU,-34.5833,150.8552,65.17,90,100,4.9,overcast clouds
453,Nerchinskiy Zavod,RU,51.3088,119.61,-2.81,92,81,3.89,broken clouds
454,Bafq,IR,31.6128,55.4107,49.48,60,2,4.34,clear sky
455,Ozernovskiy,RU,51.5,156.5167,39.25,80,100,21.83,overcast clouds
456,Camana,PE,-16.6228,-72.7111,70.79,73,25,8.43,scattered clouds
457,Tottori,JP,35.5,134.2333,42.93,79,47,10.76,light rain
458,Kabompo,ZM,-13.5927,24.2008,75.04,45,59,5.68,broken clouds
459,Lakes Entrance,AU,-37.8811,147.981,56.57,73,72,11.41,broken clouds
460,Toora-Khem,RU,52.4675,96.11,3.52,93,100,1.32,overcast clouds
461,Indramayu,ID,-6.3264,108.32,81.46,77,100,7.72,heavy intensity rain
462,Belmonte,BR,-15.8631,-38.8828,77.5,87,81,5.88,moderate rain
463,Corrales,US,35.2378,-106.6067,69.66,25,1,1.01,clear sky
464,Aswan,EG,24.0934,32.907,69.37,27,5,8.21,clear sky
465,Port Hedland,AU,-20.3167,118.5667,80.65,69,9,10.36,clear sky
466,Labuhan,ID,-6.8844,112.2051,79.05,86,100,5.99,light rain
467,Tessalit,ML,20.1986,1.0114,73.26,15,91,9.35,overcast clouds
468,Luganville,VU,-15.5333,167.1667,80.67,81,79,8.46,broken clouds
469,Yerofey Pavlovich,RU,53.9667,121.9667,-6.66,98,96,1.41,overcast clouds
470,Vihari,PK,30.0333,72.35,61.84,24,4,4.9,clear sky
471,Neuquen,AR,-38.9516,-68.0591,64.29,59,75,0.0,light rain
472,Jerome,US,42.7241,-114.5186,56.68,57,1,0.0,clear sky
473,Rassvet,RU,46.8333,40.75,42.84,82,1,8.95,clear sky
474,Jumla,NP,29.2747,82.1838,38.48,85,14,6.13,few clouds
475,Yinchuan,CN,38.4681,106.2731,32.22,22,0,2.08,clear sky
476,Pundaguitan,PH,6.3711,126.1689,79.11,83,100,9.42,light rain
477,Oistins,BB,13.0667,-59.5333,84.29,65,20,17.27,few clouds
478,Nynashamn,SE,58.9034,17.9479,21.94,86,72,4.21,broken clouds
479,Akyab,MM,20.15,92.9,74.86,73,91,6.26,overcast clouds
480,Najran,SA,17.4924,44.1277,57.85,29,0,2.21,clear sky
481,Barmer,IN,25.75,71.3833,64.99,37,0,6.64,clear sky
482,Omsukchan,RU,62.5333,155.8,-35.55,94,28,3.78,scattered clouds
483,Dosso,NE,13.049,3.1937,79.84,16,45,9.13,scattered clouds
484,Umm Kaddadah,SD,13.6017,26.6876,71.67,25,5,12.44,clear sky
485,Le Port,RE,-20.9373,55.2919,78.76,82,6,5.66,clear sky
486,Tilichiki,RU,60.4667,166.1,21.74,74,75,21.54,broken clouds
487,Hailar,CN,49.2,119.7,5.43,96,100,6.96,overcast clouds
488,Dwarka,IN,22.2394,68.9678,74.62,56,0,9.19,clear sky
489,Gelibolu,TR,40.4103,26.6708,62.22,56,100,12.91,overcast clouds
490,Victor Harbor,AU,-35.5667,138.6167,53.19,75,5,10.94,clear sky
491,Austin,US,30.2672,-97.7431,76.51,91,75,1.99,broken clouds
492,Charyshskoye,RU,51.3978,83.5598,31.26,90,100,10.2,overcast clouds
493,Boueni,YT,-12.9025,45.0761,82.38,71,8,5.21,clear sky
494,Batemans Bay,AU,-35.7167,150.1833,63.1,93,100,1.59,overcast clouds
495,Mountain Home,US,43.133,-115.6912,44.08,100,1,4.61,clear sky
496,Kuliyapitiya,LK,7.4688,80.0401,80.28,94,99,2.15,overcast clouds
497,Rheinbach,DE,50.6256,6.9491,40.66,81,100,7.0,overcast clouds
498,Igarka,RU,67.4667,86.5833,-15.79,97,100,17.22,light snow
499,Sabang,ID,5.8933,95.3214,78.84,81,100,20.15,overcast clouds
500,Copiapo,CL,-27.3667,-70.3333,65.89,23,35,9.57,scattered clouds
501,Ous,RU,60.9058,61.5186,11.88,87,20,7.63,few clouds
502,Borisoglebsk,RU,51.3671,42.0849,44.35,77,100,19.26,overcast clouds
503,Yeppoon,AU,-23.1333,150.7333,74.98,80,75,10.67,broken clouds
504,Burgeo,CA,47.6167,-57.6152,43.12,84,98,33.51,overcast clouds
505,Ishim,RU,56.1128,69.4902,26.37,91,100,13.85,overcast clouds
506,Fukue,JP,32.6881,128.8419,50.32,62,64,26.51,broken clouds
507,Suleja,NG,9.1758,7.1808,83.39,27,94,1.34,overcast clouds
508,Grants,US,35.1473,-107.8514,59.23,21,1,6.91,clear sky
509,Tatawin,TN,32.9297,10.4518,50.88,64,2,11.43,clear sky
510,Cockburn Town,TC,21.4612,-71.1419,79.97,74,1,13.27,clear sky
511,Colac,AU,-38.3333,143.5833,54.63,82,99,5.88,overcast clouds
512,Ust-Omchug,RU,61.15,149.6333,-21.5,99,100,3.6,overcast clouds
513,Iranshahr,IR,27.2025,60.6848,62.94,34,0,0.0,clear sky
514,Energetik,RU,51.7445,58.7934,33.66,90,100,16.82,overcast clouds
515,Caravelas,BR,-17.7125,-39.2481,77.97,78,92,8.14,overcast clouds
516,Marzuq,YE,14.4,46.4667,61.72,23,0,2.08,clear sky
517,Knyaze-Volkonskoye,RU,48.4642,135.4567,-9.06,100,28,1.86,scattered clouds
518,Huimilpan,MX,20.372,-100.2774,67.1,24,100,6.87,overcast clouds
519,Vestmannaeyjar,IS,63.4427,-20.2734,37.44,69,94,2.89,overcast clouds
520,Viedma,AR,-40.8135,-62.9967,65.82,31,73,14.72,broken clouds
521,Yatou,CN,37.15,122.3833,37.58,62,3,7.74,clear sky
522,Qurayyat,SA,31.3318,37.3428,51.98,50,0,9.22,clear sky
523,Ban Nahin,LA,18.2418,104.2122,51.93,71,7,4.21,clear sky
524,Olafsvik,IS,64.8945,-23.7142,36.27,70,100,8.3,overcast clouds
525,Zaysan,KZ,47.4667,84.8667,27.64,76,100,0.87,light snow
526,Vilhena,BR,-12.7406,-60.1458,80.82,74,75,13.8,broken clouds
527,Moroto,UG,2.5345,34.6666,70.93,58,49,9.17,scattered clouds
528,Terrasini,IT,38.146,13.0844,53.08,83,100,13.27,overcast clouds
529,Coruripe,BR,-10.1256,-36.1756,81.68,72,13,14.7,few clouds
530,Skelleftea,SE,64.7507,20.9528,26.96,63,90,4.0,light snow
531,Oron,NG,4.8256,8.2343,80.01,84,99,4.0,overcast clouds
532,Krasnoselkup,RU,65.7,82.4667,-7.83,93,100,13.69,overcast clouds
533,Sandakan,MY,5.8402,118.1179,76.68,94,20,1.99,few clouds
534,Hovd,MN,48.0056,91.6419,18.18,50,99,1.68,overcast clouds
535,Milyutinskaya,RU,48.6279,41.6679,41.92,66,73,15.99,broken clouds
536,Lavrentiya,RU,65.5833,-171.0,12.42,95,100,15.82,snow
537,San Isidro,PE,-12.1167,-77.05,73.26,70,75,1.99,broken clouds
538,Mandalgovi,MN,45.7625,106.2708,22.41,28,0,7.94,clear sky
539,Taitung,TW,22.7583,121.1444,60.24,72,57,8.97,broken clouds
540,Launceston,AU,-41.45,147.1667,53.8,81,41,1.99,scattered clouds
541,Roslavl,RU,53.9528,32.8639,27.25,90,58,10.96,broken clouds
542,Cam Ranh,VN,11.9214,109.1591,69.76,64,20,5.75,few clouds
543,Emba,KZ,48.8264,58.1442,28.53,91,29,7.25,scattered clouds
544,Tres Arroyos,AR,-38.3739,-60.2798,57.24,82,100,12.62,overcast clouds
545,Lazo,RU,43.3817,133.9014,10.49,94,58,3.02,broken clouds
546,Hidalgo,MX,20.5,-99.0,67.78,31,55,6.98,broken clouds
547,Tongchuan,CN,35.0806,109.0897,37.38,31,0,3.65,clear sky
548,Voronovytsya,UA,49.1095,28.6808,32.2,86,100,9.35,overcast clouds
549,Neiafu,TO,-18.65,-173.9833,79.48,89,20,2.3,light rain
550,Fomboni,KM,-12.28,43.7425,81.68,72,6,6.08,clear sky
551,Phalombe,MW,-15.8064,35.6507,80.6,42,74,3.24,broken clouds
552,Novonukutskiy,RU,53.7002,102.7117,2.53,95,19,2.3,few clouds
553,Bitoon,PH,10.0804,123.4587,76.62,83,97,9.06,overcast clouds
554,Kutum,SD,14.2,24.6667,67.69,25,0,7.61,clear sky
555,Maravilha,BR,-26.7608,-53.1725,86.41,34,0,4.68,clear sky
556,Zaozhuang,CN,34.8647,117.5542,40.66,48,0,0.43,clear sky
557,Partyzany,UA,46.3314,34.7503,52.9,84,98,14.56,overcast clouds
558,Jizan,SA,17.3333,42.6667,83.34,72,3,3.24,clear sky
559,Tullahoma,US,35.362,-86.2094,72.07,43,1,9.22,clear sky
560,Flin Flon,CA,54.7682,-101.865,6.64,72,90,10.36,light snow
561,Pontianak,ID,-0.0333,109.3333,76.98,94,90,3.44,light rain
562,Saint Anthony,US,45.0205,-93.218,45.48,86,90,1.01,mist
563,Surt,LY,31.2089,16.5887,66.54,29,79,4.5,broken clouds
564,Aksu,CN,41.1231,80.2644,26.69,49,100,1.32,overcast clouds
565,Hannibal,US,39.7084,-91.3585,66.0,45,6,6.13,clear sky
566,Toro,CO,4.6117,-76.0814,79.48,80,84,4.68,broken clouds
567,Beatrice,US,40.2681,-96.747,63.18,36,1,16.11,clear sky
568,Tarauaca,BR,-8.1614,-70.7656,86.43,54,81,4.65,broken clouds
569,Buraydah,SA,26.326,43.975,57.65,41,82,7.05,broken clouds
570,Lingsugur,IN,16.1667,76.5167,76.95,66,100,5.08,overcast clouds
571,Sao Desiderio,BR,-12.3633,-44.9733,82.11,66,98,2.21,overcast clouds
572,Lyuban,BY,52.7985,28.0048,30.87,84,100,16.22,overcast clouds
573,Tombouctou,ML,20.0,-3.0,72.34,16,62,10.65,broken clouds
574,Abnub,EG,27.2696,31.1511,62.04,44,45,4.32,scattered clouds
575,Soyo,AO,-6.1349,12.3689,79.36,87,100,6.26,overcast clouds
576,Naousa,GR,40.6329,22.0534,50.49,88,100,1.48,overcast clouds
577,Caohai,CN,26.8661,104.2841,40.39,95,100,2.59,overcast clouds
578,Okhotsk,RU,59.3833,143.3,-16.73,87,70,16.51,broken clouds
579,Roblin,CA,51.23,-101.3565,21.43,78,95,22.3,overcast clouds
580,Yar-Sale,RU,66.8333,70.8333,-10.98,92,100,10.94,overcast clouds
581,Poso,ID,-1.3959,120.7524,77.88,86,100,5.39,moderate rain
582,Samarai,PG,-10.6167,150.6667,81.0,80,62,5.39,broken clouds
583,Panalingaan,PH,8.7842,117.4231,77.81,85,100,1.79,overcast clouds
584,Poum,NC,-20.2333,164.0167,79.39,78,45,12.77,scattered clouds
585,Bonthe,SL,7.5264,-12.505,80.82,79,99,8.84,overcast clouds
586,Valparaiso,CL,-33.0393,-71.6273,77.23,47,0,13.8,clear sky
587,Oranjestad,AW,12.524,-70.027,85.95,70,40,18.41,scattered clouds
588,Concarneau,FR,47.875,-3.9225,56.82,92,100,26.55,light rain
589,Awbari,LY,26.5921,12.7805,63.28,13,53,19.77,broken clouds
590,Sawakin,SD,19.1059,37.3321,79.92,72,24,8.99,few clouds
591,Otofuke,JP,42.9917,143.2003,33.42,82,31,12.15,scattered clouds
592,Balikpapan,ID,-1.2675,116.8289,77.4,88,100,3.09,overcast clouds
593,Sorkjosen,NO,69.8,20.9333,14.0,79,20,2.3,few clouds
594,Alofi,NU,-19.0595,-169.9187,76.89,100,97,6.91,light rain
595,Eyl,SO,7.9803,49.8164,77.45,62,1,16.73,clear sky
596,Bahia Blanca,AR,-38.7196,-62.2724,60.15,62,100,13.78,overcast clouds
597,Guhagar,IN,17.4842,73.1929,73.87,91,96,2.59,overcast clouds
598,Cayenne,GF,4.9333,-52.3333,79.09,89,90,1.01,overcast clouds
599,Praia,CV,14.9215,-23.5087,73.94,73,20,31.07,few clouds
600,Tautira,PF,-17.7333,-149.15,86.02,74,7,16.89,clear sky
601,Mengcheng,CN,33.2579,116.5655,42.42,36,0,3.83,clear sky
602,Starodub,RU,52.5844,32.7633,29.23,92,100,10.29,overcast clouds
603,Mana,GF,5.6592,-53.7767,80.19,78,26,7.49,scattered clouds
604,Awjilah,LY,29.1081,21.2869,65.41,28,100,15.5,overcast clouds
605,San Andres,CO,12.5847,-81.7006,86.02,74,90,14.97,overcast clouds
606,Mezen,RU,65.8522,44.24,5.59,98,100,1.03,overcast clouds
607,Bartica,GY,6.4,-58.6167,88.12,68,98,5.23,overcast clouds
608,Yulara,AU,-25.2406,130.9889,80.44,28,0,10.36,clear sky
609,Waverly,US,42.7392,-84.6208,37.0,88,100,3.65,overcast clouds
610,Sechura,PE,-5.5569,-80.8222,77.36,59,92,15.12,overcast clouds
611,Brattvag,NO,62.6002,6.4434,30.6,64,75,3.44,light snow
612,Palmer,US,42.1584,-72.3287,42.66,43,20,4.0,few clouds
613,Stabat,ID,3.761,98.4513,75.4,98,100,3.13,overcast clouds
614,Hurghada,EG,27.2574,33.8129,65.64,55,100,10.83,overcast clouds
615,Sibolga,ID,1.7427,98.7792,76.35,88,98,2.98,overcast clouds
616,Fereydun Kenar,IR,36.6864,52.5225,43.11,80,3,6.42,clear sky
617,Salalah,OM,17.0151,54.0924,77.09,61,0,4.61,clear sky
618,Hazorasp,UZ,41.3194,61.0742,39.04,59,100,13.2,overcast clouds
619,Nouakchott,MR,18.0858,-15.9785,84.13,29,99,10.31,overcast clouds
620,Challans,FR,46.8436,-1.8749,56.32,92,100,25.75,overcast clouds
621,Cedar City,US,37.6775,-113.0619,55.4,31,1,0.0,clear sky
622,Melito Di Porto Salvo,IT,37.9222,15.7714,56.14,71,75,14.97,broken clouds
623,Turukhansk,RU,65.8167,87.9833,4.14,96,100,17.81,light snow
624,Tanout,NE,14.9709,8.8879,73.22,16,75,10.96,broken clouds
625,Palasa,IN,18.7667,84.4167,66.87,95,100,9.64,light rain
626,Kivertsi,UA,50.8343,25.4582,29.91,83,9,13.62,clear sky
627,Longhua,CN,23.6137,114.1919,45.32,44,7,3.24,clear sky
628,Rizhao,CN,35.4275,119.4553,40.3,54,0,4.9,clear sky
629,Imbituba,BR,-28.24,-48.6703,73.29,67,96,8.66,overcast clouds
630,Golden,US,39.7555,-105.2211,67.03,35,40,7.0,scattered clouds
631,Vitim,RU,59.4511,112.5578,30.72,75,100,14.65,overcast clouds
632,Port Augusta,AU,-32.5,137.7667,59.14,61,54,15.97,broken clouds
633,Opuwo,NA,-18.0607,13.84,71.19,34,22,6.06,few clouds
634,Lucena,PH,13.9314,121.6172,73.72,86,100,9.24,overcast clouds
635,Duncan,US,34.5023,-97.9578,75.38,54,1,8.05,clear sky
636,Eugene,US,44.0521,-123.0867,47.1,87,90,1.99,overcast clouds
637,Comodoro Rivadavia,AR,-45.8667,-67.5,73.26,28,0,14.97,clear sky
638,Linares,CL,-35.85,-71.6,80.17,25,70,9.48,broken clouds
639,Tongren,CN,27.7172,109.1853,49.78,82,97,0.18,overcast clouds
640,Boa Vista,BR,2.8197,-60.6733,89.58,45,40,9.22,scattered clouds
641,Faya,SA,18.3851,42.4509,57.31,29,27,4.36,scattered clouds
642,Nizwa,OM,22.9333,57.5333,68.36,52,0,3.78,clear sky
643,Hatillo,PR,18.4863,-66.8254,87.31,78,16,8.01,few clouds
644,La Ronge,CA,55.1001,-105.2842,8.85,78,90,9.22,light snow
645,Sri Aman,MY,1.2376,111.4621,77.09,100,100,0.0,moderate rain
646,Tres Picos,MX,15.8667,-93.5333,90.34,43,71,2.3,broken clouds
647,Puerto Madryn,AR,-42.7692,-65.0385,68.47,32,5,20.54,clear sky
648,Los Llanos De Aridane,ES,28.6585,-17.9182,62.35,69,75,13.0,broken clouds
649,Sisimiut,GL,66.9395,-53.6735,19.02,69,100,20.45,overcast clouds
650,Adigeni,GE,41.6819,42.6987,26.47,58,0,2.08,clear sky
651,Wukari,NG,7.85,9.7833,82.27,24,43,1.9,scattered clouds
652,Tura,IN,25.5198,90.2201,63.23,85,93,2.35,overcast clouds
653,Jutai,BR,-5.1833,-68.9,77.95,90,100,2.06,moderate rain
654,Morondava,MG,-20.2833,44.2833,81.3,83,51,12.06,broken clouds
655,Pemangkat,ID,1.1667,108.9667,80.37,82,100,11.95,overcast clouds
656,Santa Cruz,BO,-17.8,-63.1667,89.06,62,40,9.22,scattered clouds
657,Kang,BW,-23.6752,22.7876,79.27,39,91,7.02,overcast clouds
658,Skjervoy,NO,70.0311,20.9714,26.78,71,9,21.16,clear sky
659,Buckeye,US,33.3703,-112.5838,80.6,27,0,6.91,clear sky
660,Astara,AZ,38.5,48.6667,38.1,71,0,4.07,clear sky
661,Mikuni,JP,36.2171,136.1519,44.51,72,89,13.71,light rain
662,Mombetsu,JP,44.3525,143.3525,39.85,73,47,13.85,scattered clouds
663,Magistralnyy,RU,56.1725,107.4458,13.78,89,90,6.38,overcast clouds
664,Esik,KZ,43.3552,77.4525,38.62,56,68,7.14,broken clouds
665,Anaconda,US,46.1285,-112.9423,47.39,43,58,6.24,broken clouds
666,Santiago Del Estero,AR,-27.7951,-64.2615,95.83,25,11,14.9,few clouds
667,Xuddur,SO,4.1213,43.8894,78.26,41,0,10.11,clear sky
668,Blackwater,AU,-23.5833,148.8833,74.44,82,0,5.95,clear sky
669,San Cristobal,VE,7.7669,-72.225,82.58,41,10,4.59,clear sky
670,Mikhaylovka,RU,50.06,43.2379,42.78,69,100,16.64,overcast clouds
671,Pokhvistnevo,RU,53.6524,52.1274,35.89,99,100,10.69,overcast clouds
672,Prince Rupert,CA,54.3161,-130.3201,38.89,89,90,11.5,light rain
673,Damaturu,NG,11.747,11.9608,76.1,27,8,8.46,clear sky
674,Palo Alto,US,37.4419,-122.143,61.75,79,90,0.0,haze
675,Praia Da Vitoria,PT,38.7333,-27.0667,62.85,94,20,2.3,few clouds
676,Kaeo,NZ,-35.1,173.7833,69.33,87,100,8.5,moderate rain
677,Dryden,CA,49.7833,-92.7503,26.89,80,90,14.97,overcast clouds
678,Asau,RO,46.4333,26.4,34.95,80,100,2.73,light rain
679,Sinop,TR,41.7711,34.8709,44.31,62,75,13.18,broken clouds
